[{"id":"1252717092","name":"사려니숲길 주차장 전기차충전소","address":"제주특별자치도 제주시 봉개동 2750-2","lng":"126.637484729602","lat":"33.4341068530876"},{"id":"1957416280","name":"하얏트 리젠시 제주 호텔 전기차충전소","address":"제주특별자치도 서귀포시 색달동 3039-1","lng":"126.405583807733","lat":"33.2454378419952"},{"id":"365135857","name":"골드원 호텔앤드스위트 전기차충전소","address":"제주특별자치도 서귀포시 이어도로 1032","lng":"126.522387420346","lat":"33.2442095638004"},{"id":"1897326891","name":"모슬포운진항 전기차충전소","address":"제주특별자치도 서귀포시 대정읍 하모리 646-20","lng":"126.257605181651","lat":"33.2105460728876"},{"id":"901256264","name":"981파크 전기차충전소","address":"제주특별자치도 제주시 애월읍 천덕로 880-24","lng":"126.366509023697","lat":"33.3900369448134"},{"id":"1346326531","name":"서귀포매일시장 공영주차장 전기차충전소","address":"제주특별자치도 서귀포시 중앙로62번길 18 3층","lng":"126.563230508718","lat":"33.2501489768202"},{"id":"130487088","name":"서커스월드공연장 전기차충전소","address":"제주특별자치도 서귀포시 안덕면 동광리 886","lng":"126.344602641455","lat":"33.31438414386"},{"id":"1575043021","name":"파리바게뜨 함덕해수욕장점 전기차충전소","address":"제주특별자치도 제주시 조천읍 신북로 473","lng":"126.661004386642","lat":"33.5436714026338"},{"id":"819134710","name":"뉴오션리조트 전기차충전소","address":"제주특별자치도 제주시 애월읍 고내리 300-2","lng":"126.345569909446","lat":"33.4693979820979"},{"id":"976033636","name":"성산항 공영주차장 전기차충전소","address":"제주특별자치도 서귀포시 성산읍 성산등용로 112-7","lng":"126.933104794189","lat":"33.4719126653253"},{"id":"2069430963","name":"라마다앙코르 전기차충전소","address":"제주특별자치도 서귀포시 서호중로 55","lng":"126.519264988937","lat":"33.2544769965552"},{"id":"1350345438","name":"한라산국립공원 관음사탐방안내소 전기차충전소","address":"제주특별자치도 제주시 산록북로 588","lng":"126.549757591879","lat":"33.4216134051671"},{"id":"1602624281","name":"성아자동차공업사 전기차충전소","address":"제주특별자치도 제주시 한림읍 한수풀로 127-3 성아자동차공업사","lng":"126.275434853693","lat":"33.4220650992315"},{"id":"25109070","name":"제주도청 1청사 전기차충전소","address":"제주특별자치도 제주시 문연로 6","lng":"126.497722598412","lat":"33.4882207234688"},{"id":"298318845","name":"충북학생해양수련원 전기차충전소","address":"제주특별자치도 제주시 애월읍 곽지리 1622-61","lng":"126.306975859308","lat":"33.4506568758611"},{"id":"742574216","name":"신화월드 테마파크 C-1구역 전기차충전소","address":"제주특별자치도 서귀포시 안덕면 신화역사로304번길 98","lng":"126.307543154776","lat":"33.3065311964764"},{"id":"2075027042","name":"라마다제주함덕호텔 전기차충전소","address":"제주특별자치도 제주시 조천읍 신북로 470","lng":"126.659873203915","lat":"33.5431499755046"},{"id":"1537839980","name":"물영아리주차장 전기차충전소","address":"제주특별자치도 서귀포시 남원읍 수망리 산 182-7","lng":"126.692858581825","lat":"33.3601952259918"},{"id":"1147405097","name":"연동공영주차장(로얄호텔앞) 전기차충전소","address":"제주특별자치도 제주시 신대로12길 52 지상1층","lng":"126.491463037264","lat":"33.4890344870271"},{"id":"294597519","name":"방선문빌리지7차 전기차충전소","address":"제주특별자치도 제주시 아란1길 28","lng":"126.539162771186","lat":"33.4757219106199"},{"id":"1915409848","name":"라마다제주시티호텔 전기차충전소","address":"제주특별자치도 제주시 중앙로 304","lng":"126.534296856443","lat":"33.4935050841641"},{"id":"979224361","name":"제주하수처리장 전기차충전소","address":"제주특별자치도 제주시 도리로 254","lng":"126.48018152376","lat":"33.5089761978836"},{"id":"702334016","name":"광치기해변공영주차장 전기차충전소","address":"제주특별자치도 서귀포시 성산읍 고성리 263","lng":"126.925514775432","lat":"33.4553322478499"},{"id":"223688688","name":"알앤티호텔 전기차충전소","address":"제주특별자치도 제주시 중앙로14길 30-1","lng":"126.521210084969","lat":"33.5112396469335"},{"id":"244766471","name":"신화월드 랜딩관 전기차충전소 전기차충전소","address":"제주특별자치도 서귀포시 안덕면 신화역사로304번길 38","lng":"126.31635202613","lat":"33.3049726791712"},{"id":"436040986","name":"대박이네마트 전기차충전소","address":"제주특별자치도 제주시 애월읍 하귀2리 1675 대박이네마트 지상주차장","lng":"126.402909778958","lat":"33.4833626482327"},{"id":"401908492","name":"Tesla 제주 수퍼차저","address":"제주특별자치도 제주시 연삼로 136 제주 세일즈&딜리버리센터","lng":"126.506867510766","lat":"33.492670025654"},{"id":"277777990","name":"한국남부발전 남제주발전본부 전기차충전소","address":"제주특별자치도 서귀포시 안덕면 화순리 610-5","lat":0},{"id":"1278792865","name":"블루렌트카 제주도 전기차충전소","address":"제주특별자치도 제주시 용문로 48","lng":"126.501366897424","lat":"33.5040853291967"},{"id":"1990771265","name":"이마트 신제주점 전기차충전소","address":"제주특별자치도 제주시 1100로 3348 5층","lng":"126.480431633456","lat":"33.4849650136857"},{"id":"540659598","name":"에비뉴빌 전기차충전소","address":"제주특별자치도 제주시 사송길 31","lng":"126.565924302365","lat":"33.4749592973964"},{"id":"153931910","name":"소노벨제주 전기차충전소","address":"제주특별자치도 제주시 조천읍 신북로 577","lng":"126.67113074618","lat":"33.5410260306975"},{"id":"291442636","name":"한국교통안전공단 제주자동차검사소 전기차충전소","address":"제주특별자치도 제주시 삼봉로 79","lng":"126.58949418865","lat":"33.5143670384723"},{"id":"1154263140","name":"카카오 본사 신관 전기차충전소 (테슬라전용)","address":"제주특별자치도 제주시 영평동 2184","lng":"126.570791373463","lat":"33.4524869237158"},{"id":"1751464744","name":"하나은행 제주금융센터 전기차충전소","address":"제주특별자치도 제주시 중앙로 60","lng":"126.524440112964","lat":"33.512837715448"},{"id":"1248002236","name":"더쇼어호텔제주 전기차충전소","address":"제주특별자치도 서귀포시 색달동 3039-1","lng":"126.405583807733","lat":"33.2454378419952"},{"id":"1744714187","name":"서해파스텔 전기차충전소","address":"제주특별자치도 제주시 한경면 주전길 78","lng":"126.176274328295","lat":"33.3360481110513"},{"id":"1708685399","name":"제주전파관리소 전기차충전소","address":"제주특별자치도 제주시 애월읍 상가리 29-10","lng":"126.372639630385","lat":"33.4047792795844"},{"id":"157697403","name":"슬로우트립 게스트하우스 전기차충전소","address":"제주특별자치도 서귀포시 성산읍 오조로85번길 4","lng":"126.914629432657","lat":"33.461624690125"},{"id":"1611346628","name":"서귀포향토오일장 전기차충전소","address":"제주특별자치도 서귀포시 토평서로11번길 142","lng":"126.573741943432","lat":"33.2677894929182"},{"id":"538661121","name":"백록휴레스트이호2차 전기차충전소","address":"제주특별자치도 제주시 덕지2길 7","lng":"126.450793367284","lat":"33.4945384082468"},{"id":"1973311791","name":"애월농협 하나로마트 전기차충전소","address":"제주특별자치도 제주시 애월읍 애월리 1400-1","lng":"126.322000572518","lat":"33.4602122755876"},{"id":"703660130","name":"방주교회 전기차충전소","address":"제주특별자치도 서귀포시 안덕면 산록남로762번길 113","lng":"126.387787906087","lat":"33.305124721628"},{"id":"1787899513","name":"한국중부발전㈜ 상명풍력발전소 전기차충전소","address":"제주특별자치도 제주시 한림읍 금악서길 133","lng":"126.291961897947","lat":"33.3399517213268"},{"id":"22484144","name":"제주노루생태공원 전기차충전소","address":"제주특별자치도 제주시 명림로 520","lng":"126.6266892746","lat":"33.4443239221222"},{"id":"560998533","name":"더파스텔팬션 전기차충전소","address":"제주특별자치도 서귀포시 안덕면 화순리 1063-8","lng":"126.333147577089","lat":"33.2459159994949"},{"id":"986845445","name":"호텔휘슬락 전기차충전소","address":"제주특별자치도 제주시 서부두2길 26","lng":"126.527509377287","lat":"33.5173806716395"},{"id":"188899246","name":"성산일출봉 공영주차장 전기차충전소","address":"제주특별자치도 서귀포시 성산읍 성산리 114-3 공중화장실 앞 전기차 주차면","lng":"126.93529431573","lat":"33.462044274515"},{"id":"1495598568","name":"서귀포시축협 흑한우명품관 전기차충전소","address":"제주특별자치도 서귀포시 토평동 262-1","lng":"126.58847132166","lat":"33.257309255998"},{"id":"702302652","name":"덕수리마을회관 전기차충전소","address":"제주특별자치도 서귀포시 안덕면 덕수회관로 98","lng":"126.306493309511","lat":"33.2546432843554"},{"id":"802191758","name":"돈사돈 월정점 전기차충전소","address":"제주특별자치도 제주시 구좌읍 한동북1길 29-3","lng":"126.827148671291","lat":"33.5413713071638"},{"id":"1010141744","name":"금능해수욕장 주차장 전기차충전소","address":"제주특별자치도 제주시 한림읍 금능리 2018","lng":"126.237574815693","lat":"33.390881031756"},{"id":"1670164162","name":"맥도날드 제주월드스타디움DT점 전기차충전소","address":"제주특별자치도 서귀포시 강정동 231-1 주차장 측면","lng":"126.507166121033","lat":"33.2494063116904"},{"id":"334156993","name":"순수한둠비도두점 전기차충전소","address":"제주특별자치도 제주시 도두이동 2607","lng":"126.481085007794","lat":"33.5101901877079"},{"id":"971932875","name":"투썸플레이스 제주노형DT점 전기차충전소","address":"제주특별자치도 제주시 노형동 1236-4","lng":"126.473979245124","lat":"33.4912579487915"},{"id":"1820176962","name":"서귀포성당 뒤 주차장 전기차충전소","address":"제주특별자치도 서귀포시 솔동산로10번길 12","lng":"126.562812683329","lat":"33.2435690309281"},{"id":"218426103","name":"투썸플레이스 제주한라대점 전기차충전소","address":"제주특별자치도 제주시 한라대학로 17","lng":"126.47380682934","lat":"33.4796447177897"},{"id":"633313634","name":"맥도날드공항점 전기차충전소","address":"제주특별자치도 제주시 도령로 159 우측 주차장","lng":"126.49256756935","lat":"33.4950660646019"},{"id":"766313456","name":"글로스터호텔제주 전기차충전소","address":"제주특별자치도 제주시 삼무로 57","lng":"126.492651655122","lat":"33.4901138763123"},{"id":"349948237","name":"제주시민속오일시장 3주차장 전기차충전소","address":"제주특별자치도 제주시 도두일동 1212-3","lng":"126.476922666878","lat":"33.4964971988266"},{"id":"794113071","name":"이마트 제주점 전기차충전소","address":"제주특별자치도 제주시 삼도이동 1258 야외 1층 주차장","lng":"126.521195128651","lat":"33.5185269596262"},{"id":"576104976","name":"한국중부발전 제주화력본부 사택 전기차충전소","address":"제주특별자치도 제주시 원당로 79","lng":"126.591927419187","lat":"33.5271419866883"},{"id":"572813759","name":"표선민속마을 해비치해변 공영주차장 전기차충전소","address":"제주특별자치도 서귀포시 표선면 표선리 40","lng":"126.842635870647","lat":"33.3242693373574"},{"id":"510978726","name":"서귀포소방서 중문119센터 전기차충전소","address":"제주특별자치도 서귀포시 일주서로 669","lng":"126.438011958918","lat":"33.2541414874689"},{"id":"1421188062","name":"스놉부티쿠스테이 전기차충전소","address":"제주특별자치도 서귀포시 예래해안로 17","lng":"126.369583514006","lat":"33.2332759669787"},{"id":"1029211175","name":"금악주유소 전기차충전소","address":"제주특별자치도 제주시 한림읍 한창로 1249","lng":"126.298459016968","lat":"33.3532985484907"},{"id":"2079367752","name":"블랙업커피 전기차충전소","address":"제주특별자치도 서귀포시 성산읍 오조리 338-4","lng":"126.917004600907","lat":"33.4682379831364"},{"id":"350933862","name":"명리동식당애월점 전기차충전소","address":"제주특별자치도 제주시 애월읍 고내리 334-2","lng":"126.349181504972","lat":"33.4724125152342"},{"id":"580815588","name":"오일장 인근 주차장 전기차충전소","address":"제주특별자치도 제주시 구좌읍 세화리 1500-41","lng":"126.856419773395","lat":"33.5250581277971"},{"id":"790012788","name":"오드리인제주/㈜갤러리 전기차충전소","address":"제주특별자치도 제주시 서해안로 100","lng":"126.460175084757","lat":"33.5030627739878"},{"id":"2109494426","name":"에이바우트커피 화북남문점 전기차충전소","address":"제주특별자치도 제주시 진서로 1","lng":"126.563538331515","lat":"33.518807453401"},{"id":"780696295","name":"동부소방서 전기차충전소","address":"제주특별자치도 서귀포시 성산읍 오조리 933","lng":"126.909865494193","lat":"33.4601976764807"},{"id":"982292554","name":"하효마을다목적회관 전기차충전소","address":"제주특별자치도 서귀포시 칠십리로 746","lng":"126.617676600095","lat":"33.2584584678264"},{"id":"419284236","name":"스테이상상 전기차충전소","address":"제주특별자치도 제주시 구좌읍 월정7길 55","lng":"126.795589239142","lat":"33.5549215418204"},{"id":"30431781","name":"선래왓절 전기차충전소","address":"제주특별자치도 제주시 조천읍 선진길 66-2","lng":"126.708600033611","lat":"33.4581975685543"},{"id":"1484781787","name":"제주시 공영버스주차장 전기차충전소","address":"제주특별자치도 제주시 수목원서길 17","lng":"126.483014493112","lat":"33.4691672787761"},{"id":"1944264300","name":"청수지역아동센터 전기차충전소","address":"제주특별자치도 제주시 한경면 중산간서로 3481-6","lng":"126.243832937252","lat":"33.3207738578889"},{"id":"1598080485","name":"노형리츠하임 테라스파크 전기차충전소","address":"제주특별자치도 제주시 오광로 94","lng":"126.458894380871","lat":"33.4876227006798"},{"id":"2012617255","name":"에이바우트커피 중앙여고점 전기차충전소","address":"제주특별자치도 제주시 이도이동 1995-7","lng":"126.537563088908","lat":"33.4911301659936"},{"id":"151056087","name":"에코티엘오피스텔 전기차충전소","address":"제주특별자치도 제주시 신광로4길 24","lng":"126.487611339588","lat":"33.4891080591411"},{"id":"894307390","name":"마크힐애월 전기차충전소","address":"제주특별자치도 제주시 애월읍 항몽로 136-1","lng":"126.408730744977","lat":"33.4723808959603"},{"id":"784176843","name":"휘닉스아일랜드 전기차충전소","address":"제주특별자치도 서귀포시 성산읍 섭지코지로 107","lng":"126.926442688389","lat":"33.4260423785235"},{"id":"1407824910","name":"다이소 제주세화점 전기차충전소","address":"제주특별자치도 제주시 구좌읍 일주동로 3126","lng":"126.853051234536","lat":"33.5222789628322"},{"id":"22484151","name":"제주해녀박물관 전기차충전소","address":"제주특별자치도 제주시 구좌읍 해녀박물관길 26 본관 주차장","lng":"126.863425590364","lat":"33.5236098768953"},{"id":"217224576","name":"폴바셋 제주아라DT점 전기차충전소","address":"제주특별자치도 제주시 중앙로 393","lng":"126.541005466093","lat":"33.4876400890194"},{"id":"1769244268","name":"안덕농협하나로마트 전기차충전소","address":"제주특별자치도 서귀포시 안덕면 화순로 122","lng":"126.333441520855","lat":"33.2467156863896"},{"id":"1267472522","name":"출입국관리사무소 전기차충전소","address":"제주특별자치도 제주시 용담로 3","lng":"126.503141220727","lat":"33.5138415278325"},{"id":"344447768","name":"소낭밭가든 전기차충전소","address":"제주특별자치도 서귀포시 대포복개로110번길 133","lng":"126.446706245487","lat":"33.2522054681082"},{"id":"410335276","name":"장전리사무소 전기차충전소","address":"제주특별자치도 제주시 애월읍 장전리 448-2","lng":"126.388969708852","lat":"33.4506377078294"},{"id":"1706482380","name":"제주기 신한은행제주지점 전기차충전소","address":"제주특별자치도 제주시 중앙로 166","lng":"126.526443081752","lat":"33.5040331471722"},{"id":"1873755215","name":"오후5시 두가지착각조차도 카페 전기차충전소","address":"제주특별자치도 제주시 조천읍 신흥리 727-3","lng":"126.648591147217","lat":"33.5521259954941"},{"id":"837796994","name":"해변공연장 전기차충전소","address":"제주특별자치도 제주시 중앙로 2","lng":"126.523954676516","lat":"33.518147567942"},{"id":"63807979","name":"신라스테이 제주 전기차충전소 (테슬라전용)","address":"제주특별자치도 제주시 노연로 100","lng":"126.490968206023","lat":"33.4854985745027"},{"id":"223507607","name":"베케 카페 전기차충전소","address":"제주특별자치도 서귀포시 신효동 1139-4","lng":"126.604331103003","lat":"33.2614868631379"},{"id":"303023959","name":"사려니숲길화덕피자 전기차충전소","address":"제주특별자치도 제주시 조천읍 남조로 2133","lng":"126.662190084345","lat":"33.4563335758175"},{"id":"1419320771","name":"풍경채대촌미락 전기차충전소","address":"제주특별자치도 제주시 조천읍 조함해안로 482-1","lng":"126.66447094805","lat":"33.5428298316953"},{"id":"1985869827","name":"한경농협 하나로마트 전기차충전소","address":"제주특별자치도 제주시 한경면 신한로 76","lng":"126.190617631814","lat":"33.3465593104867"},{"id":"1059976607","name":"블룸호텔제주 전기차충전소","address":"제주특별자치도 서귀포시 중문관광로72번길 53","lng":"126.408146944805","lat":"33.2499062410505"},{"id":"702300064","name":"사계포구공영주차장 전기차충전소","address":"제주특별자치도 서귀포시 안덕면 형제해안로 16","lng":"126.304900417364","lat":"33.2281749559395"},{"id":"1876364072","name":"GS25 중문사거리점 전기차충전소","address":"제주특별자치도 서귀포시 중문동 1351-1","lng":"126.426946232416","lat":"33.2580424351987"},{"id":"540603134","name":"수미안아파트 전기차충전소","address":"제주특별자치도 제주시 서사로 73","lng":"126.520182302685","lat":"33.5059414396185"},{"id":"22484142","name":"성산읍사무소 전기차충전소","address":"제주특별자치도 서귀포시 성산읍 일주동로 4330 본관 주차장","lng":"126.911060094551","lat":"33.4426418276317"},{"id":"2026249313","name":"탐라중학교 공영주차장 전기차충전소","address":"제주특별자치도 제주시 아라이동 3021","lng":"126.544302095703","lat":"33.4913408593087"},{"id":"1080725465","name":"세기자동차공업사 전기차충전소","address":"제주특별자치도 제주시 서광로 77","lng":"126.504076004001","lat":"33.5004640540243"},{"id":"1201361654","name":"제주도 광역폐기물 소각시설 전기차충전소","address":"제주특별자치도 서귀포시 산록남로1241번길 163","lng":"126.419503759306","lat":"33.3091786663623"},{"id":"2063434778","name":"서귀동공영주차장 전기차충전소","address":"제주특별자치도 서귀포시 서귀동 28-3","lng":"126.566608221348","lat":"33.2428699352453"},{"id":"190674310","name":"Tesla 서귀포 수퍼차저","address":"제주특별자치도 서귀포시 색달동 2812-4","lng":"126.410412652417","lat":"33.2482710924721"},{"id":"375387519","name":"스누피가든 전기차충전소","address":"제주특별자치도 제주시 구좌읍 금백조로 930","lng":"126.778166881442","lat":"33.4441312997032"},{"id":"350382982","name":"민오름태흥누리안빌 전기차충전소","address":"제주특별자치도 제주시 연북로 254-9","lng":"126.509881735538","lat":"33.4800488575925"},{"id":"611251486","name":"한화리조트제주 전기차충전소","address":"제주특별자치도 제주시 명림로 575-107","lng":"126.637358132958","lat":"33.4490025432113"},{"id":"1381540440","name":"대정농협 하나로마트 전기차충전소","address":"제주특별자치도 서귀포시 대정읍 일주서로 2460","lng":"126.264198746261","lat":"33.2340424591668"},{"id":"531592766","name":"롯데리아 제주외도 DT 전기차충전소","address":"제주특별자치도 제주시 일주서로 7335","lng":"126.430764428813","lat":"33.4932257349062"},{"id":"416076969","name":"노형휴스토리 전기차충전소","address":"제주특별자치도 제주시 우평로 41","lng":"126.461972915568","lat":"33.4784845029634"},{"id":"1482438015","name":"동복ESH주택 전기차충전소","address":"제주특별자치도 제주시 구좌읍 조천우회로 988","lng":"126.706802605731","lat":"33.5481851126209"},{"id":"366902455","name":"NIA글로벌센터 전기차충전소","address":"제주특별자치도 서귀포시 서호중앙로 68-11","lng":"126.520159641117","lat":"33.2534787436795"},{"id":"1878857104","name":"몬트마레 전기차충전소","address":"제주특별자치도 서귀포시 안덕면 사계북로 192","lng":"126.307931049907","lat":"33.2373280257817"},{"id":"796602828","name":"포르쉐 데스티네이션 제주 클럽나인브릿지 스타빌 전기차충전소","address":"제주특별자치도 서귀포시 안덕면 광평로 34","lng":"126.382079285353","lat":"33.3290003122"},{"id":"407972160","name":"국토교통부 인재개발원 앞 주차장 전기차충전소","address":"제주특별자치도 서귀포시 서호동 1603 주차장 안쪽","lng":"126.51569297288","lat":"33.2521029468226"},{"id":"410134240","name":"신한은행 제주중앙금융센터(늘푸른펠리스) 전기차충전소","address":"제주특별자치도 제주시 한경면 고산로6길 2","lng":"126.179152446095","lat":"33.3060510456698"},{"id":"1226266876","name":"스마트그리드 홍보관 전기차충전소","address":"제주특별자치도 제주시 구좌읍 행원로13길 122 홍보관 주차장","lng":"126.81311964704","lat":"33.5570999975965"},{"id":"1716048453","name":"테라팰리스 전기차충전소","address":"제주특별자치도 서귀포시 서문로 61","lng":"126.556845826194","lat":"33.2478883640057"},{"id":"1770560081","name":"현대자동차블루핸즈 연동점 전기차충전소","address":"제주특별자치도 제주시 신대로21길 34-1","lng":"126.500247160596","lat":"33.4819369989775"},{"id":"218475038","name":"함덕서우봉 공영주차장 전기차충전소","address":"제주특별자치도 제주시 조천읍 함덕리 산 4","lng":"126.675875251184","lat":"33.5436328728547"},{"id":"278909824","name":"더럭초등학교주차장 전기차충전소","address":"제주특별자치도 제주시 애월읍 하가로 195","lng":"126.345171297868","lat":"33.4535949380337"},{"id":"1220623731","name":"서귀포농협 하나로마트 전기차충전소","address":"제주특별자치도 서귀포시 516로 40-1","lng":"126.580084991791","lat":"33.257432513411"},{"id":"1411034539","name":"정방동공영주차장 전기차충전소","address":"제주특별자치도 서귀포시 태평로431번길 23","lng":"126.565754731717","lat":"33.2477154793937"},{"id":"25109035","name":"천지연폭포 주차장 전기차충전소","address":"제주특별자치도 서귀포시 서홍동 666-1","lng":"126.559798168615","lat":"33.2447309695007"},{"id":"2051698329","name":"솔베이지펜션 전기차충전소","address":"제주특별자치도 제주시 애월읍 광상로 115","lng":"126.417982408789","lat":"33.4465463790997"},{"id":"846687188","name":"신흥노을바다펜션 전기차충전소","address":"제주특별자치도 제주시 용담삼동 2576-3","lng":"126.484220035167","lat":"33.511704424418"},{"id":"1006984966","name":"서부소방서 안덕 119센터 전기차충전소","address":"제주특별자치도 서귀포시 안덕면 화순리 1160-10","lng":"126.330974340888","lat":"33.251107104846"},{"id":"297668340","name":"한화꿈에그린아파트 전기차충전소","address":"제주특별자치도 제주시 원노형로 102","lng":"126.483883794961","lat":"33.4799138407528"},{"id":"1682375163","name":"서귀포시 호텔더본 전기차충전소","address":"제주특별자치도 서귀포시 색달로 1","lng":"126.403935352489","lat":"33.2590600254359"},{"id":"1083470225","name":"이도 주원라비앙 전기차충전소","address":"제주특별자치도 제주시 가령로 58","lng":"126.53628217145","lat":"33.4990827533253"},{"id":"1272971427","name":"제주올래국수 전기차충전소","address":"제주특별자치도 제주시 월성로 39","lng":"126.505991734749","lat":"33.5009069049856"},{"id":"365759657","name":"제이앤비가족호텔 전기차충전소","address":"제주특별자치도 서귀포시 토평동 237-2 야외주차장","lng":"126.592648335329","lat":"33.2606105335482"},{"id":"1828290431","name":"제주에코그린리조트 전기차충전소","address":"제주특별자치도 제주시 한림읍 귀덕6길 94","lng":"126.291477646109","lat":"33.4352884916252"},{"id":"1209791454","name":"허니문하우스 전기차충전소","address":"제주특별자치도 서귀포시 칠십리로 228-13","lng":"126.578867714726","lat":"33.2441618903821"},{"id":"2004564598","name":"이도주공1단지아파트 전기차충전소","address":"제주특별자치도 제주시 구남로7길 36","lng":"126.534245491099","lat":"33.4923462530444"},{"id":"1759091836","name":"동춘서커스 전기차충전소","address":"제주특별자치도 서귀포시 중문동 2642","lng":"126.420515458008","lat":"33.2441796767926"},{"id":"1399719384","name":"제주 대기고등학교 전기차충전소","address":"제주특별자치도 제주시 번영로 453-6","lng":"126.593279426577","lat":"33.4925098054592"},{"id":"1618649283","name":"송악산공영주차장 전기차충전소","address":"제주특별자치도 서귀포시 대정읍 상모리 165","lng":"126.288893448138","lat":"33.2059713251809"},{"id":"274684038","name":"일도1동주민센터 전기차충전소","address":"제주특별자치도 제주시 중앙로7길 15","lng":"126.526377102562","lat":"33.5150582697264"},{"id":"132372360","name":"용머리해안 전기차충전소","address":"제주특별자치도 서귀포시 안덕면 사계남로216번길 28 산방산랜드 근처 공영주차장 위쪽","lng":"126.310841571449","lat":"33.2337928076828"},{"id":"572186","name":"애월바다타운하우스민박 전기차충전소","address":"제주특별자치도 제주시 애월읍 고내로13길 99-15","lng":"126.347994059584","lat":"33.4719072472535"},{"id":"1764183982","name":"중엄리사무소 전기차충전소","address":"제주특별자치도 제주시 애월읍 중용길 6","lng":"126.372792381516","lat":"33.4726778597351"},{"id":"439759656","name":"중문관광단지 전기차충전소","address":"제주특별자치도 서귀포시 색달동 2822-7 중문색달해변 북측 증설주차장","lng":"126.414225180966","lat":"33.2462293519781"},{"id":"865484479","name":"베니키아호텔제주2 전기차충전소","address":"제주특별자치도 제주시 애월읍 애월해안로 554-6","lng":"126.362199049781","lat":"33.4776733164782"},{"id":"1364628751","name":"한림공원 인근 공영주차장 전기차충전소","address":"제주특별자치도 제주시 한림읍 금능리 2018 재릉종합관광안내센터 우측","lng":"126.237574815693","lat":"33.390881031756"},{"id":"2136146253","name":"제주시농협 하나로마트 제주점 전기차충전소","address":"제주특별자치도 제주시 남광로 206","lng":"126.553106499621","lat":"33.5037835445866"},{"id":"1869216614","name":"목장카페 드르쿰다 전기차충전소","address":"제주특별자치도 서귀포시 표선면 번영로 2454","lng":"126.769865986572","lat":"33.4087931689036"},{"id":"256732515","name":"제주감귤박물관 전기차충전소","address":"제주특별자치도 서귀포시 효돈순환로 441","lng":"126.607428496419","lat":"33.271593041773"},{"id":"2123330983","name":"제이디피모터스 애월점 전기차충전소","address":"제주특별자치도 제주시 애월읍 일주서로 6197","lng":"126.316343319845","lat":"33.4605978299618"},{"id":"223352655","name":"백통신원 기린산장 전기차충전소","address":"제주특별자치도 서귀포시 남원읍 서성로 427","lng":"126.639048320689","lat":"33.3226815366493"},{"id":"1804479213","name":"제주특별자치도 제주시 구남동1길 45 (저압수용가) 전기차충전소","address":"제주특별자치도 제주시 구남동1길 45","lng":"126.541151003242","lat":"33.4934020866382"},{"id":"363783139","name":"마라도가는여객선 전기차충전소","address":"제주특별자치도 서귀포시 대정읍 상모리 132 주차장","lng":"126.290209056828","lat":"33.2078912602109"},{"id":"558560691","name":"LH제주본부 전기차충전소","address":"제주특별자치도 제주시 삼도일동 305-4 내부주차장","lng":"126.523644460475","lat":"33.5040262053946"},{"id":"217424617","name":"제일행복해1단지 전기차충전소","address":"제주특별자치도 서귀포시 호근동 1328-5","lng":"126.528827313353","lat":"33.255300444971"},{"id":"220313735","name":"루스톤 전기차충전소","address":"제주특별자치도 제주시 애월읍 애월해안로 408","lng":"126.352753404945","lat":"33.4719296661155"},{"id":"705458989","name":"삼다수숲길주차장 전기차충전소","address":"제주특별자치도 제주시 조천읍 교래리 280","lng":"126.674051292526","lat":"33.4277076541255"},{"id":"2047529020","name":"씨엘블루호텔 전기차충전소","address":"제주특별자치도 제주시 용담삼동 2555","lng":"126.484758494476","lat":"33.5115790001918"},{"id":"1865951758","name":"외도1차부영아파트 전기차충전소","address":"제주특별자치도 제주시 우정로11길 22","lng":"126.433610768806","lat":"33.4876146688905"},{"id":"398926407","name":"월정리카페 스쿠버스 전기차충전소","address":"제주특별자치도 제주시 구좌읍 월정3길 14","lng":"126.792251008221","lat":"33.5526796708716"},{"id":"22484143","name":"한라도서관 전기차충전소","address":"제주특별자치도 제주시 오남로 221 본관 주차장","lng":"126.516196474169","lat":"33.4762076291588"},{"id":"255780885","name":"일도신천지아파트1차 전기차충전소","address":"제주특별자치도 제주시 천수로 72","lng":"126.544787616647","lat":"33.5044775087839"},{"id":"1228179477","name":"대어 전기차충전소","address":"제주특별자치도 제주시 서해안로 620-12","lng":"126.503077558363","lat":"33.516128603483"},{"id":"1902908415","name":"제주 영어마을 주차타워 전기차충전소","address":"제주특별자치도 서귀포시 대정읍 글로벌에듀로 370","lng":"126.2782437385","lat":"33.2807296466008"},{"id":"39774052","name":"아라태홍파우누스1차 전기차충전소","address":"제주특별자치도 제주시 516로 3092","lng":"126.55428366267","lat":"33.4502239073966"},{"id":"808763542","name":"조천도서관 전기차충전소","address":"제주특별자치도 제주시 조천읍 함덕리 919","lng":"126.667681800514","lat":"33.5376657831598"},{"id":"1280487542","name":"고산동산공영주차장 전기차충전소","address":"제주특별자치도 제주시 이도이동 1012-10","lng":"126.531415667675","lat":"33.4956642675111"},{"id":"397033020","name":"파란노을제주애월 전기차충전소","address":"제주특별자치도 제주시 애월읍 애월로 37","lng":"126.312270179629","lat":"33.4621761546953"},{"id":"1880203338","name":"엠버호텔 테슬라전용 전기차충전소","address":"제주특별자치도 제주시 삼무로 12","lng":"126.487814049478","lat":"33.4897496583797"},{"id":"31775591","name":"월드컵경기장 인근 공영주차장 전기차충전소","address":"제주특별자치도 서귀포시 법환동 870","lng":"126.510912126725","lat":"33.2477049413697"},{"id":"171190503","name":"태산봉 전기차충전소","address":"제주특별자치도 제주시 일도일동 1048-6","lng":"126.530432403746","lat":"33.5116339598634"},{"id":"2038457456","name":"용두암 공영주차장 전기차충전소","address":"제주특별자치도 제주시 용두암길 15","lng":"126.511798046978","lat":"33.5148035919525"},{"id":"228466935","name":"아띠랑스호텔 전기차충전소","address":"제주특별자치도 서귀포시 성산읍 해맞이해안로 2614","lng":"126.909136942196","lat":"33.4775159621215"},{"id":"174359984","name":"롯데시네마 삼화지구 전기차충전소","address":"제주특별자치도 제주시 삼양이동 1477-1","lng":"126.587905631349","lat":"33.5206548811324"},{"id":"89393289","name":"종달리 종합복지회관 전기차충전소","address":"제주특별자치도 제주시 구좌읍 종달동길 3","lng":"126.900597183737","lat":"33.4926020225739"},{"id":"259502952","name":"건강과 성박물관 전기차충전소","address":"제주특별자치도 서귀포시 안덕면 일주서로 1611","lng":"126.346583683696","lat":"33.2548469661363"},{"id":"1422645139","name":"한림칠돈가 전기차충전소","address":"제주특별자치도 제주시 한림읍 한림상로 69","lng":"126.261554595922","lat":"33.4075785872623"},{"id":"244198601","name":"신화월드 서머셋 클럽하우스 전기차충전소 전기차충전소","address":"제주특별자치도 서귀포시 안덕면 신화역사로304번길 89","lng":"126.317536700937","lat":"33.3028879130473"},{"id":"304635936","name":"천지동주민센터 전기차충전소","address":"제주특별자치도 서귀포시 서귀동 294-15","lng":"126.561322463748","lat":"33.2478511284455"},{"id":"835727543","name":"신화월드 메리어트관 전기차충전소 전기차충전소","address":"제주특별자치도 서귀포시 안덕면 신화역사로304번길 38","lng":"126.31635202613","lat":"33.3049726791712"},{"id":"238228907","name":"한국가스공사 제주기지건설단 전기차충전소","address":"제주특별자치도 제주시 애월읍 애월해안로 67","lng":"126.321531704759","lat":"33.4670185686203"},{"id":"1412696648","name":"광치기흑돼지 전기차충전소","address":"제주특별자치도 서귀포시 성산읍 고성리 235","lng":"126.921481837691","lat":"33.449881775127"},{"id":"1626304862","name":"삼정지에듀 전기차충전소","address":"제주특별자치도 서귀포시 대정읍 에듀시티로 148","lng":"126.274215315419","lat":"33.28404249778"},{"id":"266041267","name":"일성제주비치콘도 전기차충전소","address":"제주특별자치도 제주시 한림읍 금능리 1625 l 실외주차장 2기","lng":"126.221307204541","lat":"33.3856930855291"},{"id":"1083663158","name":"한림금능농공단지 제주맥주 전기차충전소","address":"제주특별자치도 제주시 한림읍 금능리 407-14","lng":"126.241239421484","lat":"33.358540966058"},{"id":"1126541857","name":"NH농협은행 제주수련원 전기차충전소","address":"제주특별자치도 서귀포시 표선면 일주동로 6337","lng":"126.794784090648","lat":"33.3056231535904"},{"id":"1103579754","name":"이마트 서귀포점 전기차충전소","address":"제주특별자치도 서귀포시 일주동로 9209 지상2층 주차장","lng":"126.509117350341","lat":"33.2483380261564"},{"id":"352813424","name":"제주오누이 전기차충전소","address":"제주특별자치도 제주시 구좌읍 한동리 1388-9","lng":"126.828152970508","lat":"33.5425802134156"},{"id":"1939267703","name":"샐리스호텔 전기차충전소","address":"제주특별자치도 제주시 애월읍 하가리 1257","lng":"126.3415520366","lat":"33.4648058455932"},{"id":"203366816","name":"영실매표소 전기차충전소","address":"제주특별자치도 서귀포시 하원동 산 1-1 주차장 왼쪽","lng":"126.476171521359","lat":"33.333153339392"},{"id":"1098252625","name":"명월국민학교 전기차충전소","address":"제주특별자치도 제주시 한림읍 명월로 48","lng":"126.264848690587","lat":"33.3889031451126"},{"id":"1280184023","name":"탑동제1공영주차장 전기차충전소","address":"제주특별자치도 제주시 삼도이동 1263","lng":"126.524173791479","lat":"33.5172692698016"},{"id":"1922774852","name":"함덕회차지 전기차충전소","address":"제주특별자치도 제주시 조천읍 함와로 170","lng":"126.677780974706","lat":"33.5253304437846"},{"id":"1135083834","name":"제주KCTV 전기차충전소","address":"제주특별자치도 제주시 연동 534","lng":"126.495657526162","lat":"33.4809446863184"},{"id":"1589382978","name":"경마공원 전기차충전소","address":"제주특별자치도 제주시 애월읍 평화로 2144 외부 주차장","lng":"126.393124328757","lat":"33.4098413045129"},{"id":"1048133621","name":"베라체 공영주차장 전기차충전소","address":"제주특별자치도 제주시 이도이동 1963-7","lng":"126.54551113589","lat":"33.4928863045901"},{"id":"1313483938","name":"칠돈가 전기차충전소","address":"제주특별자치도 서귀포시 일주동로 8800","lng":"126.548589368091","lat":"33.2541227409346"},{"id":"651924289","name":"표선농협 하나로마트 전기차충전소","address":"제주특별자치도 서귀포시 표선면 표선동서로 233","lng":"126.831870749517","lat":"33.3247759250078"},{"id":"634173325","name":"제주소방서 전기차충전소","address":"제주특별자치도 제주시 중앙로 342","lng":"126.53665931458","lat":"33.4908890396985"},{"id":"119303262","name":"KT성산포지사 전기차충전소","address":"제주특별자치도 서귀포시 성산읍 서성일로 1244-3","lng":"126.9117883646","lat":"33.44681419689"},{"id":"1595528224","name":"글램블루호텔 전기차충전소","address":"제주특별자치도 서귀포시 명동로 46","lng":"126.566847661689","lat":"33.2472529671466"},{"id":"1118613613","name":"해비치호텔앤드리조트 전기차충전소","address":"제주특별자치도 서귀포시 표선면 민속해안로 537 지하주차장","lng":"126.843977586306","lat":"33.3225989591113"},{"id":"1962794582","name":"오설록주차장 전기차충전소","address":"제주특별자치도 서귀포시 안덕면 서광리 2489-49","lng":"126.289747461033","lat":"33.3041734926183"},{"id":"72746161","name":"탑동2공영주차장 전기차충전소","address":"제주특별자치도 제주시 관덕로6길 15","lng":"126.522213561774","lat":"33.5117393057028"},{"id":"285071438","name":"기아자동차 제주서비스센터 전기차충전소","address":"제주특별자치도 제주시 선반로6길 12","lng":"126.561633909949","lat":"33.513808254833"},{"id":"43789271","name":"아이미제주비치호텔 전기차충전소","address":"제주특별자치도 제주시 조천읍 조함해안로 474","lng":"126.663413383771","lat":"33.5432847899896"},{"id":"1002204891","name":"소공원 주차장 전기차충전소","address":"제주특별자치도 제주시 한림읍 귀덕리 3025-2","lng":"126.289523779765","lat":"33.4425433746067"},{"id":"377575863","name":"보롬왓 전기차충전소","address":"제주특별자치도 서귀포시 표선면 성읍리 3229-31","lng":"126.75255329754","lat":"33.41372079984"},{"id":"926238258","name":"제주 새빌 E-pit 전기차충전소","address":"제주특별자치도 제주시 애월읍 평화로 1513","lng":"126.36398625559","lat":"33.361283094111"},{"id":"2099578152","name":"메이즈랜드 전기차충전소","address":"제주특별자치도 제주시 구좌읍 송당리 346","lng":"126.799780178996","lat":"33.4895742733718"},{"id":"1988822236","name":"서귀포막동주차장 전기차충전소","address":"제주특별자치도 서귀포시 막동산로 48","lng":"126.520945164067","lat":"33.2558974123603"},{"id":"22484150","name":"애월읍사무소 전기차충전소","address":"제주특별자치도 제주시 애월읍 일주서로 6349 본관 주차장","lng":"126.331966620264","lat":"33.4629900688661"},{"id":"218167216","name":"젠하이드어웨이 전기차충전소","address":"제주특별자치도 서귀포시 안덕면 사계리 2032-7","lng":"126.308547621213","lat":"33.2295888208757"},{"id":"1318649567","name":"BMW 도이치모터스 제주서비스센터 전기차충전소","address":"제주특별자치도 제주시 연삼로 120","lng":"126.505069519766","lat":"33.4928788789467"},{"id":"1838758192","name":"하얏트 리젠시 제주 전기차충전소 (테슬라전용)","address":"제주특별자치도 서귀포시 색달동 3039-1","lng":"126.405583807733","lat":"33.2454378419952"},{"id":"1029641377","name":"애월공장 전기차충전소","address":"제주특별자치도 제주시 애월읍 곽봉로 4-39","lng":"126.306450930661","lat":"33.4447609950111"},{"id":"885717334","name":"남원농협하나로마트 전기차충전소","address":"제주특별자치도 서귀포시 남원읍 남조로 52","lng":"126.721704955856","lat":"33.2843923040775"},{"id":"366140980","name":"금호팰리스 전기차충전소","address":"제주특별자치도 서귀포시 남원읍 위미리 179-12","lng":"126.68605284987","lat":"33.2756410754222"},{"id":"373030494","name":"WE호텔 전기차충전소","address":"제주특별자치도 서귀포시 1100로 453-95","lng":"126.444618497938","lat":"33.2858507894235"},{"id":"836532781","name":"아모렉스리조트 전기차충전소","address":"제주특별자치도 제주시 서해안로 216","lng":"126.470205811661","lat":"33.5074540725399"},{"id":"1283346257","name":"서귀포시축산업협동조합(한우명품관) 전기차충전소","address":"제주특별자치도 서귀포시 일주동로 8421","lng":"126.588453404227","lat":"33.2571480753511"},{"id":"1602335815","name":"카카오 본사 전기차충전소","address":"제주특별자치도 제주시 영평동 2181 외부주차장","lng":"126.570142146152","lat":"33.4502228270572"},{"id":"1971032919","name":"라메르빌 전기차충전소","address":"제주특별자치도 제주시 도련3길 14","lng":"126.586862657269","lat":"33.50795941024"},{"id":"352511074","name":"효돈축구공원 전기차충전소","address":"제주특별자치도 서귀포시 신효동 1544","lng":"126.598090785557","lat":"33.2533939181791"},{"id":"285129782","name":"자치경찰단 서귀포지역대청사 전기차충전소","address":"제주특별자치도 서귀포시 부두로 1","lng":"126.565732541097","lat":"33.2449555097238"},{"id":"603530398","name":"북촌 너븐숭이4.3 기념관 전기차충전소","address":"제주특별자치도 제주시 조천읍 북촌3길 3","lng":"126.688656387157","lat":"33.5460149487699"},{"id":"803933257","name":"JIBS사옥 주차장 전기차충전소","address":"제주특별자치도 제주시 오라삼동 2750 외부 주차장","lng":"126.502800540543","lat":"33.4941585313287"},{"id":"25109042","name":"신재생에너지홍보관 전기차충전소","address":"제주특별자치도 제주시 구좌읍 행원리 21 좌측 주차장","lng":"126.818355319547","lat":"33.5593979294161"},{"id":"806393537","name":"제주아트센터 전기차충전소","address":"제주특별자치도 제주시 오라이동 898-8","lng":"126.515224339224","lat":"33.4750856724211"},{"id":"1880885539","name":"성산보말죽칼국수 전기차충전소","address":"제주특별자치도 서귀포시 성산읍 해맞이해안로 2725","lng":"126.917112444705","lat":"33.471687158298"},{"id":"117388933","name":"이호엘리시아 전기차충전소","address":"제주특별자치도 제주시 대동길 10","lng":"126.463046209172","lat":"33.4938290940263"},{"id":"146664759","name":"제주공항 전기차충전소","address":"제주특별자치도 제주시 공항로 2","lng":"126.495951277797","lat":"33.5059364682672"},{"id":"2109651975","name":"에이바우트커피 구남점 전기차충전소","address":"제주특별자치도 제주시 아라일동 6035-2","lng":"126.535744752125","lat":"33.4849672799842"},{"id":"1898460288","name":"하원마을쉼터 전기차충전소","address":"제주특별자치도 서귀포시 1100로 740-52","lng":"126.463778610652","lat":"33.3025748338013"},{"id":"365674849","name":"상명EV충전소3 전기차충전소","address":"제주특별자치도 제주시 서해안로 22-5","lng":"126.4572677876","lat":"33.5003877728427"},{"id":"1517223735","name":"천지공영주차빌딩 전기차충전소","address":"제주특별자치도 서귀포시 서문로 16","lng":"126.559361595069","lat":"33.2515236589725"},{"id":"659244202","name":"카페이피엘 전기차충전소","address":"제주특별자치도 서귀포시 남원읍 위미항구로 8","lng":"126.657006375706","lat":"33.2752080061622"},{"id":"1880389256","name":"기아오토큐 오라대리점 전기차충전소","address":"제주특별자치도 제주시 연삼로 116","lng":"126.504733977646","lat":"33.4928834888284"},{"id":"367142359","name":"비슬휴림 전기차충전소","address":"제주특별자치도 제주시 한림읍 하운당길 32","lng":"126.268962869774","lat":"33.3899943911654"},{"id":"1326268507","name":"탐라스테이호텔제주 전기차충전소","address":"제주특별자치도 제주시 애월읍 애월해안로 881","lng":"126.391243836166","lat":"33.4869309032464"},{"id":"702252491","name":"한림읍주민자치센터 옆 공영주차장 전기차충전소","address":"제주특별자치도 제주시 한림읍 한림리 1441-4","lng":"126.262633387832","lat":"33.4128916593747"},{"id":"1654258429","name":"아라지구 공영주차장 전기차충전소","address":"제주특별자치도 제주시 아라일동 6093-4","lng":"126.544773370547","lat":"33.4736785278043"},{"id":"332550320","name":"맛존디 전기차충전소","address":"제주특별자치도 서귀포시 중문로 86","lng":"126.427122996707","lat":"33.2586815976691"},{"id":"1741706819","name":"현대자동차 제주하귀대리점 전기차충전소","address":"제주특별자치도 제주시 애월읍 일주서로 7179","lng":"126.415359233677","lat":"33.4873973746361"},{"id":"1169785080","name":"이랜드파크켄싱턴리조트제주한림점 전기차충전소","address":"제주특별자치도 제주시 한림읍 한림해안로 530","lng":"126.274436022756","lat":"33.4357631895634"},{"id":"2034454135","name":"호텔앤리조트담모라 전기차충전소","address":"제주특별자치도 서귀포시 안덕면 일주서로 1975-11","lng":"126.306031842984","lat":"33.2497188899302"},{"id":"1547494297","name":"오일시장 일대 공영주차장 전기차충전소","address":"제주특별자치도 제주시 오일장서길 26","lng":"126.474888392629","lat":"33.4972470120444"},{"id":"642281905","name":"제주삼양유적지 전기차충전소","address":"제주특별자치도 제주시 삼양일동 1665-1 관리사무실 주변","lng":"126.588274190866","lat":"33.5229955578696"},{"id":"465213565","name":"농업번인가뫼불 전기차충전소","address":"제주특별자치도 서귀포시 남원읍 남위남성로 168 야외주차장","lng":"126.693455642978","lat":"33.289952291732"},{"id":"202317201","name":"대한적십자 제주혈액원 전기차충전소","address":"제주특별자치도 제주시 오남로 45","lng":"126.520230005148","lat":"33.4911886012128"},{"id":"1469039772","name":"의귀교회 인근 공영주차장 전기차충전소","address":"제주특별자치도 서귀포시 남원읍 의귀리 1515","lng":"126.713375011524","lat":"33.3117288983436"},{"id":"85302440","name":"호텔더본 전기차충전소","address":"제주특별자치도 서귀포시 색달로 18","lng":"126.406497805552","lat":"33.2595323789253"},{"id":"217840939","name":"플레이스캠프 전기차충전소","address":"제주특별자치도 서귀포시 성산읍 동류암로 20","lng":"126.918168422686","lat":"33.4498632234159"},{"id":"1200959640","name":"목성2차아파트 전기차충전소","address":"제주특별자치도 제주시 고산동산5길 30","lng":"126.535629473288","lat":"33.4967483384613"},{"id":"1010287121","name":"표선 의례회관 앞 공영주차장 전기차충전소","address":"제주특별자치도 서귀포시 표선면 표선리 2103","lng":"126.823482477023","lat":"33.3270014989724"},{"id":"1368773513","name":"파스쿠찌 노형점 전기차충전소","address":"제주특별자치도 제주시 다랑곶길 4","lng":"126.479275489973","lat":"33.4870184952883"},{"id":"1780225832","name":"제주삼화1단지LH 아파트 전기차충전소","address":"제주특별자치도 제주시 화삼북로2길 12","lng":"126.576116224616","lat":"33.5165344023212"},{"id":"1548512950","name":"성산읍 공영주차장 전기차충전소","address":"제주특별자치도 서귀포시 성산읍 고성리 327-1","lng":"126.916685519851","lat":"33.4485644564206"},{"id":"1952065302","name":"모노리스제주파크 전기차충전소 (테슬라전용)","address":"제주특별자치도 제주시 애월읍 천덕로 880-24","lng":"126.366509023697","lat":"33.3900369448134"},{"id":"1280389952","name":"에코랜드테마파크 전기차충전소","address":"제주특별자치도 제주시 조천읍 교래리 385-1 주차장","lng":"126.679186895275","lat":"33.4473665387483"},{"id":"1067605287","name":"다올성산썬라이즈호텔 전기차충전소","address":"제주특별자치도 서귀포시 성산읍 성산등용로17번길 35 썬라이즈호텔 성산점","lng":"126.931025606842","lat":"33.4623487908713"},{"id":"301607498","name":"김녕드림타운 전기차충전소","address":"제주특별자치도 제주시 구좌읍 김녕로1길 25","lng":"126.747620056758","lat":"33.5559045926848"},{"id":"672202918","name":"제주광어천국 전기차충전소","address":"제주특별자치도 제주시 한림읍 협재리 2514-1","lng":"126.240400497571","lat":"33.3931078828867"},{"id":"1605894711","name":"디아일랜드마리나호텔 전기차충전소","address":"제주특별자치도 서귀포시 성산읍 고성오조로 94","lng":"126.914524751646","lat":"33.4521040640047"},{"id":"1577520161","name":"휴식호텔중문 전기차충전소","address":"제주특별자치도 서귀포시 이어도로 67","lng":"126.430412129075","lat":"33.238871549216"},{"id":"821335686","name":"서귀포평생학습관 전기차충전소","address":"제주특별자치도 서귀포시 서문로29번길 10","lng":"126.558543787185","lat":"33.2493042817324"},{"id":"1335831022","name":"용담2동주민센터 전기차충전소","address":"제주특별자치도 제주시 흥운길 27","lng":"126.511670377719","lat":"33.5114920008947"},{"id":"1494975870","name":"성산하수처리장 전기차충전소","address":"제주특별자치도 서귀포시 성산읍 고성동서로 115","lat":0},{"id":"1600684672","name":"호텔샬롬 전기차충전소","address":"제주특별자치도 제주시 동광로 34","lng":"126.532587804048","lat":"33.5019822781534"},{"id":"351919613","name":"토스카나호텔 전기차충전소","address":"제주특별자치도 서귀포시 용흥로66번길 158-7","lng":"126.484696302495","lat":"33.2659339022099"},{"id":"1278769672","name":"한림오일시장 주차장 전기차충전소","address":"제주특별자치도 제주시 한림읍 대림리 413","lng":"126.275324692157","lat":"33.4196786752685"},{"id":"1876115178","name":"안덕계곡 주차장 전기차충전소","address":"제주특별자치도 서귀포시 안덕면 감산리 346","lng":"126.353341674118","lat":"33.2579492317209"},{"id":"859607357","name":"오션블루 전기차충전소","address":"제주특별자치도 제주시 어영길 10-5 오션블루입구 지상주차장","lng":"126.493221642158","lat":"33.5174406057522"},{"id":"853605147","name":"준민박 전기차충전소","address":"제주특별자치도 제주시 구좌읍 일주동로 3031 야외주차장","lng":"126.845222863271","lat":"33.5275168274662"},{"id":"2101924694","name":"블루파크시티 전기차충전소","address":"제주특별자치도 제주시 도두항서길 41","lng":"126.46415327369","lat":"33.5060196715646"},{"id":"279421798","name":"파더스가든 전기차충전소","address":"제주특별자치도 서귀포시 안덕면 병악로 44-33","lng":"126.364747119848","lat":"33.2801251066367"},{"id":"893282932","name":"카사로마호텔 전기차충전소","address":"제주특별자치도 서귀포시 태평로 347","lng":"126.557857908504","lat":"33.2468268701551"},{"id":"150035981","name":"신화위더스빌더샵30차 전기차충전소","address":"제주특별자치도 제주시 연북로 218","lng":"126.504299218086","lat":"33.4810278760504"},{"id":"2032201510","name":"제주항공우주박물관 전기차충전소","address":"제주특별자치도 서귀포시 안덕면 녹차분재로 218","lng":"126.299661501283","lat":"33.3042074038577"},{"id":"25109074","name":"제주시청 전기차충전소","address":"제주특별자치도 제주시 광양9길 10 입구 좌측 주차장","lng":"126.532217532238","lat":"33.5002142104177"},{"id":"1810875260","name":"중앙로터리공영주차장 전기차충전소","address":"제주특별자치도 서귀포시 서문로 7","lng":"126.560494331371","lat":"33.2516786001006"},{"id":"1087334432","name":"제주도립미술관 전기차충전소","address":"제주특별자치도 제주시 연동 680-7","lng":"126.489570481684","lat":"33.4526211302787"},{"id":"1219186961","name":"한림공원 전기차충전소","address":"제주특별자치도 제주시 한림읍 한림로 300 주차장 서측","lng":"126.239691183153","lat":"33.3902248567191"},{"id":"1319633403","name":"토비스콘도 전기차충전소","address":"제주특별자치도 제주시 애월읍 애월로1길 8","lng":"126.312441948373","lat":"33.4630773393015"},{"id":"1305978454","name":"중문덤장 전기차충전소","address":"제주특별자치도 서귀포시 색달동 2119 주차장 좌측","lng":"126.408210305619","lat":"33.2576671543474"},{"id":"1207022991","name":"치유의숲 전기차충전소","address":"제주특별자치도 서귀포시 산록남로 2271","lng":"126.527902264226","lat":"33.2919386189088"},{"id":"1969574912","name":"대한예수교장로회금성교회 전기차충전소","address":"제주특별자치도 제주시 애월읍 금성하안길 3","lng":"126.302688575931","lat":"33.4465346819647"},{"id":"1726428815","name":"비전교회 전기차충전소","address":"제주특별자치도 제주시 서사로7길 7","lng":"126.520814612913","lat":"33.5077522980639"},{"id":"2121461162","name":"블루하와이 리조트 전기차충전소","address":"제주특별자치도 제주시 한림읍 한림로 77","lng":"126.218029806636","lat":"33.3814013862618"},{"id":"50063273","name":"한라산국립공원 어리목탐방안내소 전기차충전소","address":"제주특별자치도 제주시 1100로 2070-61 주차장 입구 오른쪽","lng":"126.494840454381","lat":"33.3926868254858"},{"id":"400061626","name":"조천읍사무소 전기차충전소","address":"제주특별자치도 제주시 조천읍 신북로 194","lng":"126.634257277525","lat":"33.5348243365723"},{"id":"1831002287","name":"M1971 전기차충전소","address":"제주특별자치도 서귀포시 대정읍 하모리 646-20","lng":"126.257605181651","lat":"33.2105460728876"},{"id":"2014227699","name":"에이바우트커피 삼화점 전기차충전소","address":"제주특별자치도 제주시 화북일동 1068-1","lng":"126.57279595517","lat":"33.5157078667592"},{"id":"873404572","name":"함덕농협하나로마트 전기차충전소","address":"제주특별자치도 제주시 조천읍 함와로 40","lng":"126.674912222026","lat":"33.5365660075389"},{"id":"1898482264","name":"일품순두부 봉개점 전기차충전소","address":"제주특별자치도 제주시 번영로 430","lng":"126.588486584334","lat":"33.4929782292759"},{"id":"1382486648","name":"GS25 애월구엄점 전기차충전소","address":"제주특별자치도 제주시 애월읍 애월해안로 715","lng":"126.377326236133","lat":"33.4840177935878"},{"id":"1031777022","name":"제주공항 입구주차장 전기차충전소","address":"제주특별자치도 제주시 용담이동 1611-2","lng":"126.495860461995","lat":"33.503074902852"},{"id":"701937121","name":"금악건강증진센터 전기차충전소","address":"제주특별자치도 제주시 한림읍 한창로 1295-1","lng":"126.296470531243","lat":"33.3563456100943"},{"id":"378688946","name":"하버호텔 전기차충전소","address":"제주특별자치도 제주시 임항로 260","lng":"126.538265342908","lat":"33.5176947739466"},{"id":"1033552792","name":"제주종합경기장2 전기차충전소","address":"제주특별자치도 제주시 서광로2길 24 애향운동장 앞 주차장","lng":"126.518797458105","lat":"33.4950621500521"},{"id":"275674210","name":"성산아쿠아비치호텔 전기차충전소","address":"제주특별자치도 서귀포시 성산읍 일주동로 4258","lng":"126.911996216605","lat":"33.448348346602"},{"id":"1446251335","name":"조천농협 농산물산지유통센터 전기차충전소","address":"제주특별자치도 제주시 조천읍 일주동로 757","lng":"126.622539445301","lat":"33.5313401360743"},{"id":"1252159343","name":"외도위산엘리시움아파트자치회 전기차충전소","address":"제주특별자치도 제주시 우정로4길 4-4","lng":"126.430403668422","lat":"33.491740153537"},{"id":"1450072541","name":"신화역사공원 조성사업 전기차충전소","address":"제주특별자치도 서귀포시 안덕면 서광리 산 35-7","lng":"126.305691801359","lat":"33.2979121444728"},{"id":"2147390682","name":"호텔윈스토리 전기차충전소","address":"제주특별자치도 서귀포시 중정로 11","lng":"126.557556701428","lat":"33.2477010116068"},{"id":"480634634","name":"협재해수욕장 전기차충전소","address":"제주특별자치도 제주시 한림읍 금능리 2018","lng":"126.237574815693","lat":"33.390881031756"},{"id":"189752028","name":"박물관은살아있다 전기차충전소","address":"제주특별자치도 서귀포시 중문관광로 42 우측 주차장 측면","lng":"126.40977029065","lat":"33.2549005523668"},{"id":"734738922","name":"해뜨는초록마을펜션 전기차충전소","address":"제주특별자치도 서귀포시 성산읍 섭지코지로25번길 8","lng":"126.920425704061","lat":"33.4395771178821"},{"id":"243036903","name":"제주해양경찰서 전기차충전소","address":"제주특별자치도 제주시 임항로 154","lng":"126.540242702465","lat":"33.5199812587853"},{"id":"60104565","name":"서귀포수협수산물직매장 전기차충전소","address":"제주특별자치도 서귀포시 칠십리로72번길 1","lng":"126.564403149086","lat":"33.2395534247513"},{"id":"2084048718","name":"제이디피모터스 봉개점 전기차충전소","address":"제주특별자치도 제주시 명림로 5","lng":"126.604351969985","lat":"33.484920210767"},{"id":"1742402101","name":"기아자동차 한라대리점 전기차충전소","address":"제주특별자치도 제주시 연삼로 177","lng":"126.511590424608","lat":"33.4930562197371"},{"id":"5605766","name":"제주스테이 비우다 전기차충전소","address":"제주특별자치도 서귀포시 색달중앙로121번길 45","lng":"126.409300166425","lat":"33.2656616798762"},{"id":"543235341","name":"풀빌라더시크릿 대정점 전기차충전소","address":"제주특별자치도 서귀포시 대정읍 영락리 1551-2","lng":"126.207427941256","lat":"33.2454356008249"},{"id":"364104991","name":"라오체효돈아파트 전기차충전소","address":"제주특별자치도 서귀포시 신효로 30","lng":"126.613909722402","lat":"33.2632401701719"},{"id":"979136228","name":"성김대건신부제주표착기념관 전기차충전소","address":"제주특별자치도 제주시 한경면 용수1길 108","lng":"126.167730757441","lat":"33.3228626331132"},{"id":"962984381","name":"한담누리게스트하우스 전기차충전소","address":"제주특별자치도 제주시 애월읍 일주서로 6158 야외주차장","lng":"126.31238355628","lat":"33.4592739520701"},{"id":"701955762","name":"세화리사무소 전기차충전소","address":"제주특별자치도 제주시 구좌읍 세평항로 46-9","lng":"126.856032160149","lat":"33.5269919694392"},{"id":"277160646","name":"태랑식당 전기차충전소","address":"제주특별자치도 제주시 테우해안로 136","lng":"126.44850315067","lat":"33.4976272666491"},{"id":"1656264126","name":"제주달리 전기차충전소","address":"제주특별자치도 제주시 구좌읍 행원로1길 32-1","lng":"126.800103229275","lat":"33.5549804835322"},{"id":"1699093056","name":"강정중흥s클래스아파트 전기차충전소","address":"제주특별자치도 서귀포시 대청로 12","lng":"126.500488347444","lat":"33.2523242934188"},{"id":"1448008031","name":"로그인렌트카 전기차충전소","address":"제주특별자치도 제주시 다호북길 111","lng":"126.486531671174","lat":"33.502688128534"},{"id":"379216916","name":"이도빌리지 전기차충전소","address":"제주특별자치도 제주시 516로 3080","lng":"126.553583610447","lat":"33.4498011528345"},{"id":"195595834","name":"씨앤하우스 전기차충전소","address":"제주특별자치도 제주시 조천읍 함덕서4길 11","lng":"126.662442124645","lat":"33.5384588075518"},{"id":"1830360889","name":"서귀포샘물교회 전기차충전소","address":"제주특별자치도 서귀포시 중산간동로 7983","lng":"126.563906932306","lat":"33.2646738021422"},{"id":"553110954","name":"아름다운리조트 전기차충전소","address":"제주특별자치도 서귀포시 성산읍 시흥리 5","lng":"126.910110476319","lat":"33.4752583257118"},{"id":"1440645156","name":"사우스캘리 전기차충전소","address":"제주특별자치도 서귀포시 중산간서로157번길 74","lng":"126.497772804069","lat":"33.2558419610741"},{"id":"525915435","name":"하귀농협 장례식장 전기차충전소","address":"제주특별자치도 제주시 외도일동 1145-1","lng":"126.426406949394","lat":"33.4735519022383"},{"id":"1692283636","name":"테디벨리골프엔리조트 전기차충전소","address":"제주특별자치도 서귀포시 안덕면 한창로 365 야외주차장","lng":"126.351409555697","lat":"33.288986163678"},{"id":"371850124","name":"해바라기지역아동센터 전기차충전소","address":"제주특별자치도 제주시 구좌읍 평대13길 46","lng":"126.854203385959","lat":"33.5264903441843"},{"id":"1355977145","name":"봄그리고가을리조트 전기차충전소","address":"제주특별자치도 서귀포시 성산읍 해맞이해안로 2660","lng":"126.911017164766","lat":"33.4741447731614"},{"id":"857058421","name":"제주국제컨벤션센터 전기차충전소","address":"제주특별자치도 서귀포시 중문관광로 224 본관 주차장 면세점 앞 대형주차장","lng":"126.424442899565","lat":"33.2412896364104"},{"id":"666461719","name":"아라동주민센터 전기차충전소","address":"제주특별자치도 제주시 아라일동 6103-6 아라동사무소","lng":"126.544929406378","lat":"33.4763049113748"},{"id":"213955460","name":"정방동주민센터 전기차충전소","address":"제주특별자치도 서귀포시 서귀동 540-3","lng":"126.565591936887","lat":"33.2462431789266"},{"id":"731630536","name":"농산물원종장 전기차충전소","address":"제주특별자치도 제주시 애월읍 월각로 563-20","lng":"126.328574250015","lat":"33.3755194278588"},{"id":"269866252","name":"동물위생시험소 동물보호센터 전기차충전소","address":"제주특별자치도 제주시 첨단동길 184-14","lng":"126.589213080931","lat":"33.4555329048921"},{"id":"291964633","name":"남양맨션 가동 전기차충전소","address":"제주특별자치도 제주시 용화로5길 14","lng":"126.50660095216","lat":"33.5111667261289"},{"id":"1605885533","name":"마린뷰펜션 전기차충전소","address":"제주특별자치도 제주시 한림읍 한림로 403-1","lng":"126.245039073393","lat":"33.3983880324301"},{"id":"25109032","name":"비자림 전기차충전소","address":"제주특별자치도 제주시 구좌읍 비자숲길 55","lng":"126.811461205688","lat":"33.4910972819998"},{"id":"358898264","name":"섬횟집 전기차충전소","address":"제주특별자치도 제주시 서해안로 242","lng":"126.471719276888","lat":"33.5087553061067"},{"id":"435579559","name":"새오름영농조합 전기차충전소","address":"제주특별자치도 제주시 한림읍 수동7길 54-3","lng":"126.248960264352","lat":"33.3457058290723"},{"id":"238234305","name":"조천라오체 전기차충전소","address":"제주특별자치도 제주시 조천읍 조천리 2145-6","lng":"126.635273376803","lat":"33.5296671585337"},{"id":"2005645125","name":"남해오네뜨 전기차충전소","address":"제주특별자치도 제주시 삼무로11길 9","lng":"126.496258785478","lat":"33.4926282554009"},{"id":"1143972247","name":"베니키아호텔제주 1 전기차충전소","address":"제주특별자치도 제주시 애월읍 애월해안로 554-10","lng":"126.3628237162","lat":"33.477273700911"},{"id":"1618966538","name":"위미농협 하나로마트 전기차충전소","address":"제주특별자치도 서귀포시 남원읍 태위로 126","lng":"126.661063992553","lat":"33.2747401884015"},{"id":"207298483","name":"GS칼텍스 무수천주유소 전기차충전소","address":"제주특별자치도 제주시 노형로 45","lng":"126.451708979432","lat":"33.4634243137574"},{"id":"1290967512","name":"남원공영노외1주차장 전기차충전소","address":"제주특별자치도 서귀포시 남원읍 남원리 180","lng":"126.718341843102","lat":"33.2800574377934"},{"id":"436224719","name":"제주첨단과학단지 스마트빌딩 전기차충전소","address":"제주특별자치도 제주시 첨단로 213-3","lng":"126.572342488555","lat":"33.4537493860569"},{"id":"798570040","name":"더베이리조트 전기차충전소","address":"제주특별자치도 서귀포시 문필로35번길 46","lng":"126.593486787115","lat":"33.2411988063511"},{"id":"1624937253","name":"감귤연구소 전기차충전소","address":"제주특별자치도 서귀포시 남원읍 하례광장로 107","lng":"126.611059220951","lat":"33.3016193500229"},{"id":"136512744","name":"가시리 유채꽃길 펜션 전기차충전소","address":"제주특별자치도 서귀포시 표선면 녹산로 45","lng":"126.762529051495","lat":"33.363936566345"},{"id":"1931933342","name":"멋진녀석들 전기차충전소","address":"제주특별자치도 서귀포시 표선면 표선리 41","lng":"126.844744062092","lat":"33.3247919591774"},{"id":"179701457","name":"신화월드 또똣하우스 전기차충전소","address":"제주특별자치도 서귀포시 안덕면 서광리 산 24-18","lng":"126.319474546624","lat":"33.3001481859293"},{"id":"1324680055","name":"풀빌라더시크릿 애월점 전기차충전소","address":"제주특별자치도 제주시 애월읍 일주서로 6412-1","lng":"126.339370772156","lat":"33.4626305242621"},{"id":"1320551528","name":"씨에스호텔리조트 전기차충전소 (테슬라전용)","address":"제주특별자치도 서귀포시 중문관광로 198","lng":"126.420293320269","lat":"33.24291591839"},{"id":"401648164","name":"제주갤럭시호텔 전기차충전소","address":"제주특별자치도 제주시 남성로 33","lng":"126.512563380653","lat":"33.5031599529595"},{"id":"1442236263","name":"선앤문 전기차충전소","address":"제주특별자치도 제주시 애월읍 곽지7길 1","lng":"126.308399811765","lat":"33.4500523794457"},{"id":"699460861","name":"서부보건소 전기차충전소","address":"제주특별자치도 서귀포시 대정읍 최남단해안로15번길 12","lng":"126.253244909078","lat":"33.2186719352897"},{"id":"138564578","name":"GS25 너울빌리지점 전기차충전소","address":"제주특별자치도 제주시 한경면 금등리 646","lng":"126.193482080626","lat":"33.3628309094817"},{"id":"1643014280","name":"하와이 관광호텔 전기차충전소","address":"제주특별자치도 제주시 연동 278-2","lng":"126.491477611176","lat":"33.4830979212599"},{"id":"1059256425","name":"휴마루호스텔카페 전기차충전소","address":"제주특별자치도 서귀포시 중산간동로8183번길 16","lng":"126.542615445239","lat":"33.2612349550738"},{"id":"376717534","name":"탐라장애인종합복지관 전기차충전소","address":"제주특별자치도 제주시 광양4길 32","lng":"126.525114943548","lat":"33.5014120048362"},{"id":"91557514","name":"중앙공영주차장 전기차충전소","address":"제주특별자치도 서귀포시 중앙로54번길 17","lng":"126.562164236792","lat":"33.2498596812642"},{"id":"514070658","name":"동화초등학교 공영주차장 전기차충전소","address":"제주특별자치도 제주시 화북일동 14-1","lng":"126.576666202166","lat":"33.5179351033849"},{"id":"22484136","name":"돈내코야영장 전기차충전소","address":"제주특별자치도 서귀포시 돈내코로 114","lng":"126.584767758792","lat":"33.3002409928156"},{"id":"705946479","name":"한경면종합복지회관 전기차충전소","address":"제주특별자치도 제주시 한경면 칠전로 37","lng":"126.183707946634","lat":"33.3004758313743"},{"id":"1553015431","name":"제주특별자치도청 제2청사 후문주차장 전기차충전소","address":"제주특별자치도 제주시 연동 322-8","lng":"126.500039572145","lat":"33.4882179211537"},{"id":"1016451333","name":"서귀포농업기술센터 전기차충전소","address":"제주특별자치도 서귀포시 남원읍 중산간동로 7413","lng":"126.607796723078","lat":"33.2879719156491"},{"id":"217477535","name":"트로피컬하이드어웨이 브런치카페 전기차충전소","address":"제주특별자치도 서귀포시 대정읍 형제해안로 284","lng":"126.291276107974","lat":"33.2092381394588"},{"id":"2143033227","name":"한집시티빌 전기차충전소","address":"제주특별자치도 제주시 통물길 125","lng":"126.438618682922","lat":"33.4824057121611"},{"id":"1898478916","name":"대륜EV충전소2 전기차충전소","address":"제주특별자치도 제주시 애월읍 소길리 산 19","lng":"126.370639110305","lat":"33.4371621714391"},{"id":"412590517","name":"상효원 전기차충전소","address":"제주특별자치도 서귀포시 상효동 1556","lng":"126.585332595865","lat":"33.305239677193"},{"id":"1777309852","name":"중문미로파크 전기차충전소","address":"제주특별자치도 서귀포시 일주서로 1225-5","lng":"126.381933873762","lat":"33.2633959683897"},{"id":"1291940976","name":"성내 공영주차장 전기차충전소","address":"제주특별자치도 제주시 삼도이동 839","lng":"126.520039694057","lat":"33.5121424784744"},{"id":"943893556","name":"가시리 조랑말체험공원 전기차충전소","address":"제주특별자치도 서귀포시 표선면 가시리 산 41-3","lng":"126.732335525569","lat":"33.3831684367883"},{"id":"220445189","name":"제주월드컵경기장 전기차충전소","address":"제주특별자치도 서귀포시 월드컵로 33","lng":"126.509275340644","lat":"33.2462193733057"},{"id":"1550834153","name":"호텔컬리넌제주 전기차충전소","address":"제주특별자치도 제주시 사장1길 26","lng":"126.492841930309","lat":"33.4853638950135"},{"id":"1603020056","name":"대정영어교육도시 전기차충전소","address":"제주특별자치도 서귀포시 대정읍 보성리 2411","lng":"126.281104966923","lat":"33.2877482899664"},{"id":"63409796","name":"표선 해양경비단 전기차충전소","address":"제주특별자치도 서귀포시 표선면 하천리 1493-4","lng":"126.823044747046","lat":"33.3568292694816"},{"id":"56160654","name":"현대자동차블루핸즈 아라점 전기차충전소","address":"제주특별자치도 제주시 아라이동 1622-3","lng":"126.545264610869","lat":"33.4781646926898"},{"id":"619429393","name":"고산출장소 전기차충전소","address":"제주특별자치도 제주시 한경면 노을해안로 1145","lng":"126.164095617201","lat":"33.3081774233966"},{"id":"89083005","name":"신성로 공영주차장 전기차충전소","address":"제주특별자치도 제주시 신성로10길 10","lng":"126.529611886756","lat":"33.4958483004824"},{"id":"350947729","name":"제주삼다도횟집1호점 전기차충전소","address":"제주특별자치도 제주시 서해안로 568","lng":"126.499027078625","lat":"33.5192594629722"},{"id":"303472204","name":"탐라도서관 전기차충전소","address":"제주특별자치도 제주시 정원로 50","lng":"126.47624624632","lat":"33.4791376264224"},{"id":"2022581464","name":"제주종합경기장1 전기차충전소","address":"제주특별자치도 제주시 서광로2길 24","lng":"126.518797458105","lat":"33.4950621500521"},{"id":"1774624615","name":"바캉스 샤브샤브 전기차충전소","address":"제주특별자치도 제주시 조천읍 신북로 595","lng":"126.673091122478","lat":"33.5400584029593"},{"id":"211564465","name":"베네치아호텔 전기차충전소","address":"제주특별자치도 서귀포시 중앙로 23-2","lng":"126.561484325595","lat":"33.2467891276474"},{"id":"1332282287","name":"대정감협 인근 공영주차장 전기차충전소","address":"제주특별자치도 서귀포시 대정읍 하모리 964-2","lng":"126.251978516562","lat":"33.2230327383986"},{"id":"97106866","name":"아라행복주택 전기차충전소","address":"제주특별자치도 제주시 연북로 628","lng":"126.54520650415","lat":"33.4901895096796"},{"id":"1102147491","name":"기아오토큐 외도점 전기차충전소","address":"제주특별자치도 제주시 외도이동 2017","lng":"126.424032650134","lat":"33.4925025693887"},{"id":"1763610067","name":"노형제1공영주차장 전기차충전소","address":"제주특별자치도 제주시 노형동 1282-1","lng":"126.477713568978","lat":"33.4863941519297"},{"id":"241934269","name":"YES렌트카 전기차충전소","address":"제주특별자치도 제주시 오일장중길 117","lng":"126.47787734114","lat":"33.5000719720926"},{"id":"351709277","name":"돌담위에흑돼지 전기차충전소","address":"제주특별자치도 제주시 애월읍 신엄리 963-3","lng":"126.3683604835","lat":"33.4779151195361"},{"id":"156402217","name":"수망리다목적회관 전기차충전소","address":"제주특별자치도 서귀포시 남원읍 태수로 599-34","lng":"126.713674863861","lat":"33.3284686388582"},{"id":"1290735148","name":"신흥리공영주차장 전기차충전소","address":"제주특별자치도 제주시 조천읍 신흥리 530-8","lng":"126.650318977441","lat":"33.5480650748762"},{"id":"795264487","name":"봉개동공영주차장 전기차충전소","address":"제주특별자치도 제주시 봉개동 1854-1","lng":"126.595352720016","lat":"33.4905105401437"},{"id":"2061426516","name":"새서귀포교회 전기차충전소","address":"제주특별자치도 서귀포시 신서로48번길 20-8","lng":"126.506892834773","lat":"33.2531659153738"},{"id":"210731697","name":"성산서부교회 전기차충전소","address":"제주특별자치도 서귀포시 성산읍 고성중앙로 52","lng":"126.908664328156","lat":"33.4485684549077"},{"id":"571154414","name":"머체왓숲길영농조합 전기차충전소","address":"제주특별자치도 서귀포시 남원읍 한남리 1622-3","lng":"126.673815197334","lat":"33.3305765514437"},{"id":"1110671315","name":"해촌 전기차충전소","address":"제주특별자치도 서귀포시 성산읍 일출로 220","lng":"126.930010484397","lat":"33.4592511920775"},{"id":"548254430","name":"제주 애월버스회차지 전기차충전소","address":"제주특별자치도 제주시 애월읍 수산리 444-1","lng":"126.395003025929","lat":"33.4663382898532"},{"id":"155705040","name":"리나더하우스 전기차충전소","address":"제주특별자치도 제주시 애월읍 애월로14길 6","lng":"126.321336725192","lat":"33.4634786920202"},{"id":"1203369274","name":"연동공영주차장 전기차충전소","address":"제주특별자치도 제주시 신대로12길 52 1층","lng":"126.491463037264","lat":"33.4890344870271"},{"id":"1070626686","name":"썬라이즈호텔 섭지코지점 전기차충전소","address":"제주특별자치도 서귀포시 성산읍 신양로 83","lng":"126.918304277437","lat":"33.4366541515672"},{"id":"1559123983","name":"우도고래펜션 전기차충전소","address":"제주특별자치도 제주시 우도면 하고수길 64","lng":"126.956611847965","lat":"33.5126733437027"},{"id":"836784801","name":"스위스마을 전기차충전소","address":"제주특별자치도 제주시 조천읍 함와로 566-27","lng":"126.676774382162","lat":"33.4939459216843"},{"id":"336520542","name":"켄싱턴리조트 서귀포점 전기차충전소","address":"제주특별자치도 서귀포시 이어도로 684 실외주차장","lng":"126.489040381289","lat":"33.2336794657051"},{"id":"1696104585","name":"세화그때그집 전기차충전소","address":"제주특별자치도 제주시 구좌읍 세평항로 43","lng":"126.854829803983","lat":"33.5271301336029"},{"id":"1897186744","name":"제주국제대학교 전기차충전소","address":"제주특별자치도 제주시 영평동 2237-6","lng":"126.569159895346","lat":"33.4390113281255"},{"id":"1937166833","name":"금악리새마을회 전기차충전소","address":"제주특별자치도 제주시 한림읍 금악로1길 15","lng":"126.294840311368","lat":"33.3598872154113"},{"id":"1942212222","name":"제주영어교육도시사무소 전기차충전소","address":"제주특별자치도 서귀포시 대정읍 보성리 2410","lng":"126.281985630612","lat":"33.2879380296325"},{"id":"1609716639","name":"제주특별자치도교육청 전기차충전소","address":"제주특별자치도 제주시 문연로 5","lng":"126.498355228768","lat":"33.4901159086412"},{"id":"1142661447","name":"제주권역재활센터 전기차충전소","address":"제주특별자치도 서귀포시 서귀동 284-1","lng":"126.562344139998","lat":"33.2527761859668"},{"id":"332335776","name":"보말명가 전기차충전소","address":"제주특별자치도 서귀포시 성산읍 성산등용로 44","lng":"126.930711386233","lat":"33.4668216797857"},{"id":"1170461176","name":"다온디엔씨 전기차충전소","address":"제주특별자치도 제주시 연동6길 11","lng":"126.489410810535","lat":"33.4846982255351"},{"id":"1992601611","name":"우리들국수 전기차충전소","address":"제주특별자치도 서귀포시 성산읍 고성리 224-18","lng":"126.922402334599","lat":"33.4370266250849"},{"id":"1273364737","name":"오름빌리지2차 전기차충전소","address":"제주특별자치도 제주시 연사2길 34","lng":"126.511520119285","lat":"33.4862978719729"},{"id":"2112616751","name":"한국전기안전공사 제주지역본부 전기차충전소","address":"제주특별자치도 제주시 도령로 40 하와이오피스텔 지하 3층","lng":"126.483804489604","lat":"33.4879148718789"},{"id":"2097058841","name":"제주대학교병원 전기차충전소","address":"제주특별자치도 제주시 아란13길 15","lng":"126.545201028535","lat":"33.4672085209581"},{"id":"1797589711","name":"플레이스엉물 전기차충전소","address":"제주특별자치도 제주시 구좌읍 종달논길 92","lng":"126.900654920667","lat":"33.489628755328"},{"id":"1341330348","name":"코리아마트 전기차충전소","address":"제주특별자치도 서귀포시 동홍서로 42-6","lng":"126.570113696442","lat":"33.2523798805173"},{"id":"1599543581","name":"서귀포해양경찰서 전기차충전소","address":"제주특별자치도 서귀포시 서호남로 11","lng":"126.513856753401","lat":"33.2513149730218"},{"id":"123974463","name":"형제공업사 전기차충전소","address":"제주특별자치도 제주시 외도일동 2023-5","lng":"126.423600875731","lat":"33.4917162707023"},{"id":"99153445","name":"아모르하우스2펜션 전기차충전소","address":"제주특별자치도 제주시 구좌읍 종달리 1361-1","lng":"126.90228669974","lat":"33.5082379882731"},{"id":"1599289742","name":"UFO펜션 전기차충전소","address":"제주특별자치도 제주시 애월읍 애월해안로 765","lng":"126.381839597776","lat":"33.4855023998487"},{"id":"702650904","name":"서광서리복지회관 전기차충전소","address":"제주특별자치도 서귀포시 안덕면 서광리 2162-9","lng":"126.302070675745","lat":"33.2846897051612"},{"id":"974619666","name":"제주시청 열린정보센터 전기차충전소","address":"제주특별자치도 제주시 광양9길 10","lng":"126.532217532238","lat":"33.5002142104177"},{"id":"1757995004","name":"중앙병원 전기차충전소","address":"제주특별자치도 제주시 이호이동 22","lng":"126.47010931978","lat":"33.4919035890934"},{"id":"1922739063","name":"국제부두회차지 전기차충전소","address":"제주특별자치도 제주시 임항로 193","lng":"126.544518911047","lat":"33.527517848063"},{"id":"1597639638","name":"부영호텔리조트 전기차충전소","address":"제주특별자치도 서귀포시 중문동 2700-2","lng":"126.423607529133","lat":"33.2421503349446"},{"id":"884377537","name":"레드캡투어 제주 차고지 전기차충전소","address":"제주특별자치도 제주시 다호길 130","lng":"126.493993936015","lat":"33.503202261972"},{"id":"243756565","name":"옛집2 전기차충전소","address":"제주특별자치도 제주시 구좌읍 비자림로 1220","lng":"126.73566414649","lat":"33.4344906540265"},{"id":"1522356538","name":"오션파크 전기차충전소","address":"제주특별자치도 제주시 도두항서길 53","lng":"126.46383043189","lat":"33.5052477776765"},{"id":"1963189917","name":"제주안전체험관 전기차충전소","address":"제주특별자치도 제주시 애월읍 어음리 산 145","lat":0},{"id":"395025858","name":"형제집수리 전기차충전소","address":"제주특별자치도 제주시 구좌읍 세화11길 8","lng":"126.86097379209","lat":"33.5215626808964"},{"id":"1952208463","name":"벙커하우스 전기차충전소","address":"제주특별자치도 서귀포시 법환동 140","lng":"126.519183904275","lat":"33.240575106268"},{"id":"1348675283","name":"신풍지역아동센터 전기차충전소","address":"제주특별자치도 서귀포시 성산읍 신풍상동로14번길 6","lng":"126.834442814839","lat":"33.3617683945542"},{"id":"1276703477","name":"서귀포자연휴양림 전기차충전소","address":"제주특별자치도 서귀포시 대포동 산 1-8","lng":"126.459776529173","lat":"33.3107804230256"},{"id":"651583160","name":"해든빌 전기차충전소","address":"제주특별자치도 제주시 신설로5길 5-12","lng":"126.544555367488","lat":"33.4945321717081"},{"id":"1230542888","name":"코델리아S호텔 전기차충전소","address":"제주특별자치도 서귀포시 성산읍 오조리 990-1","lng":"126.910139165329","lat":"33.4549646593079"},{"id":"994623048","name":"클럽이에스 제주리조트 전기차충전소","address":"제주특별자치도 서귀포시 1100로 501","lng":"126.456559491066","lat":"33.289778187496"},{"id":"1347452289","name":"상호네숯불구이 전기차충전소","address":"제주특별자치도 제주시 이도이동 21-1","lng":"126.549753505776","lat":"33.4991044880267"},{"id":"1952358695","name":"애월스테이인제주 전기차충전소","address":"제주특별자치도 제주시 애월읍 애월해안로 708","lng":"126.377381686838","lat":"33.4825685926109"},{"id":"1056163124","name":"남원공영주차장 전기차충전소","address":"제주특별자치도 서귀포시 남원읍 태위로700번길 4-1","lng":"126.72111962147","lat":"33.2791448471002"},{"id":"553711589","name":"한라산리조트 전기차충전소","address":"제주특별자치도 제주시 선돌목동길 56-46 한라리조트 부설주차장","lng":"126.544710028678","lat":"33.4441227029338"},{"id":"221940068","name":"제주부영1차 아파트 전기차충전소","address":"제주특별자치도 제주시 원노형로 93","lng":"126.485543753064","lat":"33.4804132823224"},{"id":"346629320","name":"약천사 전기차충전소","address":"제주특별자치도 서귀포시 하원동 1698-1","lng":"126.450560929524","lat":"33.2436982403742"},{"id":"884204407","name":"탑동2공영주차장 전기차충전소","address":"제주특별자치도 제주시 삼도이동 1257","lng":"126.519829831635","lat":"33.5183157517344"},{"id":"1289658615","name":"태흥3리마을회관 전기차충전소","address":"제주특별자치도 서귀포시 남원읍 삼덕로 3","lng":"126.758473527596","lat":"33.2935918060557"},{"id":"1797773786","name":"동신빌라 전기차충전소","address":"제주특별자치도 제주시 다랑곶6길 35","lng":"126.479814618134","lat":"33.4898702392164"},{"id":"520528665","name":"메밀가공시설 전기차충전소","address":"제주특별자치도 서귀포시 안덕면 산록남로 675","lng":"126.37968156946","lat":"33.3280820649176"},{"id":"211665196","name":"사라봉 다목적체육관 전기차충전소","address":"제주특별자치도 제주시 동문로 169","lng":"126.544422991564","lat":"33.5137004451373"},{"id":"1746111867","name":"노형중학교 전기차충전소","address":"제주특별자치도 제주시 노형1길 28","lng":"126.475828503976","lat":"33.4796693327165"},{"id":"293405616","name":"부면동정류장 뒤 마을시설 전기차충전소","address":"제주특별자치도 제주시 애월읍 어림비로 203","lng":"126.332525862737","lat":"33.416393733602"},{"id":"1878421254","name":"도두골든빌리지 전기차충전소","address":"제주특별자치도 제주시 서해안로 146","lng":"126.464971565348","lat":"33.5026723649785"},{"id":"22484134","name":"제주국제컨벤션센터2 전기차충전소","address":"제주특별자치도 서귀포시 중문관광로 224 본관 주차장 면세점 앞 대형주차장","lng":"126.424442899565","lat":"33.2412896364104"},{"id":"1235241714","name":"건입동 행복주택 전기차충전소","address":"제주특별자치도 제주시 임항로 77","lng":"126.532440384734","lat":"33.5174282328558"},{"id":"1237896612","name":"에코그린리조트 에코패밀리주식회사 전기차충전소","address":"제주특별자치도 제주시 한림읍 귀덕리 1506","lng":"126.291171988279","lat":"33.4352547387"},{"id":"146463401","name":"광진주택 전기차충전소","address":"제주특별자치도 서귀포시 서호호근로 168-1","lng":"126.52388071717","lat":"33.262374523725"},{"id":"159798390","name":"한국수산자원관리공단 전기차충전소","address":"제주특별자치도 제주시 한림읍 옹포7길 23","lng":"126.252482099902","lat":"33.4068787205717"},{"id":"1002695646","name":"우당도서관 전기차충전소","address":"제주특별자치도 제주시 사라봉동길 30","lng":"126.547868025982","lat":"33.5148698082522"},{"id":"1873787999","name":"모슬포1호텔 전기차충전소","address":"제주특별자치도 서귀포시 대정읍 최남단해안로30번길 11","lng":"126.250915837134","lat":"33.2177381979601"},{"id":"581912617","name":"걸매축구장 전기차충전소","address":"제주특별자치도 서귀포시 서홍동 477-4","lng":"126.554172248313","lat":"33.2490854603116"},{"id":"1740833696","name":"기아자동차 동제주지점 전기차충전소","address":"제주특별자치도 제주시 동문로 153","lng":"126.543117519101","lat":"33.5136394681469"},{"id":"1540062178","name":"제주다움렌트카 전기차충전소","address":"제주특별자치도 제주시 용담삼동 1181-1 주차장","lng":"126.495512159842","lat":"33.5183097097863"},{"id":"1298051887","name":"리치호텔 전기차충전소","address":"제주특별자치도 제주시 애월읍 고내리 332-5 야외주차장","lng":"126.348810103149","lat":"33.472244853201"},{"id":"918002647","name":"만장굴 전기차충전소","address":"제주특별자치도 제주시 구좌읍 만장굴길 182","lng":"126.771615754394","lat":"33.5283774190149"},{"id":"1230414255","name":"지중해리조트 전기차충전소","address":"제주특별자치도 서귀포시 남원읍 남태해안로 445","lng":"126.74677355944","lat":"33.2829541498351"},{"id":"1226900256","name":"방림원 전기차충전소","address":"제주특별자치도 제주시 한경면 저지리 2120-144","lng":"126.267606246229","lat":"33.3369572822762"},{"id":"737137371","name":"흥학산업개발 전기차충전소","address":"제주특별자치도 제주시 서해안로 238","lng":"126.471492103941","lat":"33.5088043753245"},{"id":"285882276","name":"CJ대한통운클럽나인브릿지 전기차충전소","address":"제주특별자치도 서귀포시 안덕면 광평로 34-156","lng":"126.404250168607","lat":"33.3403726049988"},{"id":"929031349","name":"블루마운틴커피랜드 전기차충전소","address":"제주특별자치도 서귀포시 성산읍 중산간동로 4255","lng":"126.837303644472","lat":"33.3800800569409"},{"id":"491993142","name":"아시아CGI애니메이션센터 전기차충전소","address":"제주특별자치도 서귀포시 동홍로 41","lng":"126.56736170675","lat":"33.2525987200994"},{"id":"1609345085","name":"쇠소깍휴양펜션 전기차충전소","address":"제주특별자치도 서귀포시 하효동 996-1","lng":"126.622477884632","lat":"33.2519041154082"},{"id":"1293528580","name":"베스트힐 주차장 조천읍 전기차충전소","address":"제주특별자치도 제주시 조천읍 남조로 2109-38 베스트힐 입구 오른쪽 도로 안쪽","lng":"126.657661087959","lat":"33.454006914774"},{"id":"1405261455","name":"퐁낭작은도서관 앞 주차장 전기차충전소","address":"제주특별자치도 서귀포시 동홍동 657-5","lng":"126.572071174399","lat":"33.2557655804815"},{"id":"218809968","name":"서귀포 제2청사 전기차충전소","address":"제주특별자치도 서귀포시 신중로 55","lng":"126.510527414272","lat":"33.2555817572486"},{"id":"1724645837","name":"구좌농공단지(제주이야기) 전기차충전소","address":"제주특별자치도 제주시 구좌읍 행원로13길 67","lng":"126.816853444529","lat":"33.5530345172983"},{"id":"1002143711","name":"성산국민체육센터 전기차충전소","address":"제주특별자치도 서귀포시 성산읍 일주동로 4024","lng":"126.904560308325","lat":"33.4667461512221"},{"id":"256593888","name":"강정생명평화교회 전기차충전소","address":"제주특별자치도 서귀포시 선반로65번길 61","lng":"126.495539509233","lat":"33.2376818134986"},{"id":"1047422654","name":"롯데하이마트 서귀포점 전기차충전소","address":"제주특별자치도 서귀포시 동홍동 458-5","lng":"126.56614777861","lat":"33.2539502719917"},{"id":"1590251499","name":"조수일리마을회 전기차충전소","address":"제주특별자치도 제주시 한경면 홍수암로 566","lng":"126.22780066626","lat":"33.3372767863483"},{"id":"1744311411","name":"드라마오션 전기차충전소","address":"제주특별자치도 제주시 애월읍 금성5길 42-15","lng":"126.301560833469","lat":"33.448306081357"},{"id":"195249932","name":"현대1차연립주택 전기차충전소","address":"제주특별자치도 서귀포시 김정문화로 66","lng":"126.511824133901","lat":"33.2505762417266"},{"id":"1367588778","name":"계룡길벽돌가 전기차충전소","address":"제주특별자치도 제주시 구좌읍 계룡길 26-13","lng":"126.836178607181","lat":"33.538993358357"},{"id":"627087610","name":"제주펜션오다 전기차충전소","address":"제주특별자치도 제주시 용담삼동 2396","lng":"126.487792400443","lat":"33.5177978433689"},{"id":"708792523","name":"새마을금고제주연수원 전기차충전소","address":"제주특별자치도 제주시 애월읍 평화로 2175","lng":"126.393515365007","lat":"33.4133454711559"},{"id":"1297542531","name":"기아오토큐 제주아라영평점 전기차충전소","address":"제주특별자치도 제주시 포제길 7","lng":"126.569079922662","lat":"33.471860064868"},{"id":"660308317","name":"그림리조트 전기차충전소","address":"제주특별자치도 제주시 서해안로 620-1","lng":"126.503483773385","lat":"33.516184958784"},{"id":"1267648066","name":"성읍문화마을 주차장 전기차충전소","address":"제주특별자치도 서귀포시 표선면 성읍리 1632-6","lng":"126.798169421217","lat":"33.3941504165889"},{"id":"1875976174","name":"카페2085 전기차충전소","address":"제주특별자치도 제주시 조천읍 선교로 185","lng":"126.700099678963","lat":"33.4868617250041"},{"id":"1604913662","name":"샹그릴라호텔 전기차충전소","address":"제주특별자치도 제주시 해안동 2103","lng":"126.454119619185","lat":"33.4637487065815"},{"id":"1407493565","name":"씨유 제주표선남촌점 전기차충전소","address":"제주특별자치도 서귀포시 표선면 표선동서로 138","lng":"126.828846920611","lat":"33.316793191586"},{"id":"2082370582","name":"레드서브마린 전기차충전소","address":"제주특별자치도 제주시 한림읍 한림해안로 592","lng":"126.277092293708","lat":"33.4406680871829"},{"id":"992878560","name":"춘강장애인근로센터 전기차충전소","address":"제주특별자치도 제주시 516로 3114","lng":"126.552896610249","lat":"33.4519713549604"},{"id":"454069371","name":"납읍리보건소 전기차충전소","address":"제주특별자치도 제주시 애월읍 납읍리 1576-19","lng":"126.330262610436","lat":"33.4385635486262"},{"id":"1309178683","name":"서귀포대정LH 아파트 전기차충전소","address":"제주특별자치도 서귀포시 대정읍 하모중앙로 6","lng":"126.252299233841","lat":"33.2277263019356"},{"id":"1065431210","name":"스카이워터쇼 전기차충전소","address":"제주특별자치도 제주시 구좌읍 번영로 2172-80","lng":"126.743049831145","lat":"33.4241050089803"}]